[
{"city":"Pinson","lat":"33.7064","lng":"-86.6654","state":"Alabama","id":"1840022941"},
{"city":"Hoover","lat":"33.3761","lng":"-86.8065","state":"Alabama","id":"1840014795"},
{"city":"Trussville","lat":"33.6389","lng":"-86.5832","state":"Alabama","id":"1840015672"},
{"city":"Bessemer","lat":"33.3709","lng":"-86.9713","state":"Alabama","id":"1840013732"},
{"city":"Spanish Fort","lat":"30.7257","lng":"-87.8602","state":"Alabama","id":"1840015879"},
{"city":"Center Point","lat":"33.6447","lng":"-86.6851","state":"Alabama","id":"1840014789"},
{"city":"Lanett","lat":"32.8572","lng":"-85.2082","state":"Alabama","id":"1840014858"},
{"city":"Phenix City","lat":"32.4586","lng":"-85.0250","state":"Alabama","id":"1840006012"},
{"city":"Sheffield","lat":"34.7556","lng":"-87.7008","state":"Alabama","id":"1840015537"},
{"city":"Hamilton","lat":"34.1346","lng":"-87.9755","state":"Alabama","id":"1840003629"},
{"city":"Gadsden","lat":"34.0090","lng":"-86.0156","state":"Alabama","id":"1840006332"},
{"city":"Calera","lat":"33.1249","lng":"-86.7450","state":"Alabama","id":"1840013757"},
{"city":"Clay","lat":"33.6980","lng":"-86.6068","state":"Alabama","id":"1840014790"},
{"city":"Talladega","lat":"33.4329","lng":"-86.0976","state":"Alabama","id":"1840008244"},
{"city":"Scottsboro","lat":"34.6438","lng":"-86.0491","state":"Alabama","id":"1840005605"},
{"city":"Russellville","lat":"34.5056","lng":"-87.7282","state":"Alabama","id":"1840004247"},
{"city":"Alabaster","lat":"33.2197","lng":"-86.8233","state":"Alabama","id":"1840013756"},
{"city":"Glencoe","lat":"33.9447","lng":"-85.9319","state":"Alabama","id":"1840003257"},
{"city":"Opelika","lat":"32.6621","lng":"-85.3773","state":"Alabama","id":"1840005210"},
{"city":"Pike Road","lat":"32.2909","lng":"-86.0917","state":"Alabama","id":"1840017000"},
{"city":"Tuscaloosa","lat":"33.2349","lng":"-87.5268","state":"Alabama","id":"1840005563"},
{"city":"Sylacauga","lat":"33.1779","lng":"-86.2606","state":"Alabama","id":"1840015700"},
{"city":"Montgomery","lat":"32.3470","lng":"-86.2663","state":"Alabama","id":"1840008353"},
{"city":"Fairhope","lat":"30.5235","lng":"-87.8827","state":"Alabama","id":"1840002039"},
{"city":"Rainbow City","lat":"33.9337","lng":"-86.0923","state":"Alabama","id":"1840014732"},
{"city":"Hartselle","lat":"34.4392","lng":"-86.9399","state":"Alabama","id":"1840013593"},
{"city":"Alexander City","lat":"32.9240","lng":"-85.9353","state":"Alabama","id":"1840013788"},
{"city":"Wetumpka","lat":"32.5406","lng":"-86.2054","state":"Alabama","id":"1840006013"},
{"city":"Mobile","lat":"30.6782","lng":"-88.1161","state":"Alabama","id":"1840006009"},
{"city":"Clanton","lat":"32.8417","lng":"-86.6230","state":"Alabama","id":"1840006157"},
{"city":"Muscle Shoals","lat":"34.7426","lng":"-87.6336","state":"Alabama","id":"1840014657"},
{"city":"Oxford","lat":"33.5963","lng":"-85.8718","state":"Alabama","id":"1840014780"},
{"city":"Selma","lat":"32.4166","lng":"-87.0336","state":"Alabama","id":"1840008329"},
{"city":"Tuscumbia","lat":"34.7204","lng":"-87.7035","state":"Alabama","id":"1840005567"},
{"city":"Satsuma","lat":"30.8579","lng":"-88.0634","state":"Alabama","id":"1840015887"},
{"city":"Northport","lat":"33.2584","lng":"-87.5981","state":"Alabama","id":"1840014819"},
{"city":"Daleville","lat":"31.2914","lng":"-85.7114","state":"Alabama","id":"1840014955"},
{"city":"Pelham","lat":"33.3117","lng":"-86.7569","state":"Alabama","id":"1840014826"},
{"city":"Prattville","lat":"32.4602","lng":"-86.4595","state":"Alabama","id":"1840004086"},
{"city":"Homewood","lat":"33.4617","lng":"-86.8092","state":"Alabama","id":"1840014794"},
{"city":"Montevallo","lat":"33.1254","lng":"-86.8480","state":"Alabama","id":"1840014825"},
{"city":"Gulf Shores","lat":"30.2718","lng":"-87.7080","state":"Alabama","id":"1840013886"},
{"city":"Lincoln","lat":"33.5935","lng":"-86.1372","state":"Alabama","id":"1840015698"},
{"city":"Enterprise","lat":"31.3276","lng":"-85.8459","state":"Alabama","id":"1840001548"},
{"city":"Jacksonville","lat":"33.8084","lng":"-85.7544","state":"Alabama","id":"1840007433"},
{"city":"Robertsdale","lat":"30.5533","lng":"-87.7060","state":"Alabama","id":"1840014981"},
{"city":"Vestavia Hills","lat":"33.4516","lng":"-86.7443","state":"Alabama","id":"1840015673"},
{"city":"Valley","lat":"32.8088","lng":"-85.1771","state":"Alabama","id":"1840015760"},
{"city":"Arab","lat":"34.3309","lng":"-86.4990","state":"Alabama","id":"1840013600"},
{"city":"Dothan","lat":"31.2335","lng":"-85.4066","state":"Alabama","id":"1840001518"},
{"city":"Decatur","lat":"34.5733","lng":"-86.9919","state":"Alabama","id":"1840001403"},
{"city":"Pleasant Grove","lat":"33.4936","lng":"-86.9782","state":"Alabama","id":"1840014793"},
{"city":"Bay Minette","lat":"30.8938","lng":"-87.7912","state":"Alabama","id":"1840000959"},
{"city":"Saraland","lat":"30.8439","lng":"-88.0954","state":"Alabama","id":"1840015886"},
{"city":"Leeds","lat":"33.5429","lng":"-86.5636","state":"Alabama","id":"1840005106"},
{"city":"Chickasaw","lat":"30.7715","lng":"-88.0794","state":"Alabama","id":"1840014986"},
{"city":"Tarrant","lat":"33.5941","lng":"-86.7684","state":"Alabama","id":"1840015671"},
{"city":"Anniston","lat":"33.6713","lng":"-85.8137","state":"Alabama","id":"1840006563"},
{"city":"Brent","lat":"32.9421","lng":"-87.1753","state":"Alabama","id":"1840013781"},
{"city":"Cullman","lat":"34.1791","lng":"-86.8402","state":"Alabama","id":"1840001354"},
{"city":"Auburn","lat":"32.6084","lng":"-85.4897","state":"Alabama","id":"1840013810"},
{"city":"Birmingham","lat":"33.5276","lng":"-86.7986","state":"Alabama","id":"1840006507"},
{"city":"Millbrook","lat":"32.5033","lng":"-86.3729","state":"Alabama","id":"1840014877"},
{"city":"Helena","lat":"33.2855","lng":"-86.8748","state":"Alabama","id":"1840014827"},
{"city":"Pell City","lat":"33.5609","lng":"-86.2669","state":"Alabama","id":"1840014771"},
{"city":"Midfield","lat":"33.4552","lng":"-86.9226","state":"Alabama","id":"1840014791"},
{"city":"Tuskegee","lat":"32.4395","lng":"-85.7139","state":"Alabama","id":"1840004337"},
{"city":"Fort Payne","lat":"34.4559","lng":"-85.6954","state":"Alabama","id":"1840004822"},
{"city":"Oneonta","lat":"33.9385","lng":"-86.4936","state":"Alabama","id":"1840005206"},
{"city":"Demopolis","lat":"32.4980","lng":"-87.8298","state":"Alabama","id":"1840014897"},
{"city":"Atmore","lat":"31.0927","lng":"-87.4763","state":"Alabama","id":"1840013888"},
{"city":"Guntersville","lat":"34.3674","lng":"-86.2634","state":"Alabama","id":"1840006456"},
{"city":"Moody","lat":"33.5986","lng":"-86.4963","state":"Alabama","id":"1840014770"},
{"city":"Attalla","lat":"34.0049","lng":"-86.1040","state":"Alabama","id":"1840013655"},
{"city":"Orange Beach","lat":"30.2941","lng":"-87.5851","state":"Alabama","id":"1840014980"},
{"city":"Athens","lat":"34.7846","lng":"-86.9516","state":"Alabama","id":"1840000935"},
{"city":"Foley","lat":"30.3994","lng":"-87.6645","state":"Alabama","id":"1840002084"},
{"city":"Huntsville","lat":"34.6990","lng":"-86.6412","state":"Alabama","id":"1840005061"},
{"city":"Smiths Station","lat":"32.5285","lng":"-85.0960","state":"Alabama","id":"1840015792"},
{"city":"Brewton","lat":"31.1111","lng":"-87.0737","state":"Alabama","id":"1840006146"},
{"city":"Prichard","lat":"30.7735","lng":"-88.1301","state":"Alabama","id":"1840014990"},
{"city":"Andalusia","lat":"31.3101","lng":"-86.4781","state":"Alabama","id":"1840004591"},
{"city":"Mountain Brook","lat":"33.4871","lng":"-86.7401","state":"Alabama","id":"1840014792"},
{"city":"Daphne","lat":"30.6291","lng":"-87.8872","state":"Alabama","id":"1840006178"},
{"city":"Troy","lat":"31.8021","lng":"-85.9665","state":"Alabama","id":"1840005558"},
{"city":"Jasper","lat":"33.8514","lng":"-87.2719","state":"Alabama","id":"1840003778"},
{"city":"Eufaula","lat":"31.9102","lng":"-85.1505","state":"Alabama","id":"1840001685"},
{"city":"Gardendale","lat":"33.6677","lng":"-86.8069","state":"Alabama","id":"1840002820"},
{"city":"Albertville","lat":"34.2631","lng":"-86.2106","state":"Alabama","id":"1840013599"},
{"city":"Madison","lat":"34.7113","lng":"-86.7617","state":"Alabama","id":"1840015524"},
{"city":"Greenville","lat":"31.8437","lng":"-86.6379","state":"Alabama","id":"1840003498"},
{"city":"Fairfield","lat":"33.4747","lng":"-86.9194","state":"Alabama","id":"1840001883"},
{"city":"Ozark","lat":"31.4508","lng":"-85.6473","state":"Alabama","id":"1840005283"},
{"city":"Hueytown","lat":"33.4237","lng":"-87.0223","state":"Alabama","id":"1840014796"},
{"city":"Southside","lat":"33.9007","lng":"-86.0237","state":"Alabama","id":"1840015604"},
{"city":"Irondale","lat":"33.5440","lng":"-86.6599","state":"Alabama","id":"1840014797"},
{"city":"Chelsea","lat":"33.3258","lng":"-86.6287","state":"Alabama","id":"1840014823"},
{"city":"Boaz","lat":"34.1985","lng":"-86.1529","state":"Alabama","id":"1840013602"},
{"city":"Rainsville","lat":"34.4939","lng":"-85.8435","state":"Alabama","id":"1840014658"},
{"city":"Florence","lat":"34.8300","lng":"-87.6658","state":"Alabama","id":"1840002083"},
{"city":"Fultondale","lat":"33.6177","lng":"-86.8015","state":"Alabama","id":"1840002481"}
]
