[
{"city":"Marlborough","lat":"42.3494","lng":"-71.5468","state":"Massachusetts","id":"1840000427"},
{"city":"Quincy","lat":"42.2516","lng":"-71.0183","state":"Massachusetts","id":"1840000461"},
{"city":"Chicopee","lat":"42.1764","lng":"-72.5719","state":"Massachusetts","id":"1840000462"},
{"city":"Waltham","lat":"42.3889","lng":"-71.2423","state":"Massachusetts","id":"1840000428"},
{"city":"Medford","lat":"42.4234","lng":"-71.1087","state":"Massachusetts","id":"1840000431"},
{"city":"Gloucester","lat":"42.6260","lng":"-70.6896","state":"Massachusetts","id":"1840000412"},
{"city":"Boston","lat":"42.3189","lng":"-71.0838","state":"Massachusetts","id":"1840000455"},
{"city":"Haverhill","lat":"42.7838","lng":"-71.0871","state":"Massachusetts","id":"1840002450"},
{"city":"Newton","lat":"42.3317","lng":"-71.2085","state":"Massachusetts","id":"1840000433"},
{"city":"Pittsfield","lat":"42.4517","lng":"-73.2605","state":"Massachusetts","id":"1840003116"},
{"city":"Everett","lat":"42.4064","lng":"-71.0544","state":"Massachusetts","id":"1840000425"},
{"city":"Salem","lat":"42.5130","lng":"-70.9021","state":"Massachusetts","id":"1840000410"},
{"city":"Brockton","lat":"42.0821","lng":"-71.0242","state":"Massachusetts","id":"1840000467"},
{"city":"North Adams","lat":"42.6844","lng":"-73.1166","state":"Massachusetts","id":"1840000423"},
{"city":"Watertown","lat":"42.3700","lng":"-71.1775","state":"Massachusetts","id":"1840031198"},
{"city":"Westfield","lat":"42.1382","lng":"-72.7561","state":"Massachusetts","id":"1840000463"},
{"city":"Cambridge","lat":"42.3758","lng":"-71.1184","state":"Massachusetts","id":"1840000429"},
{"city":"Somerville","lat":"42.3908","lng":"-71.1013","state":"Massachusetts","id":"1840003123"},
{"city":"Northampton","lat":"42.3266","lng":"-72.6745","state":"Massachusetts","id":"1840000451"},
{"city":"Methuen","lat":"42.7340","lng":"-71.1889","state":"Massachusetts","id":"1840031195"},
{"city":"Holyoke","lat":"42.2126","lng":"-72.6411","state":"Massachusetts","id":"1840000465"},
{"city":"Newburyport","lat":"42.8124","lng":"-70.8879","state":"Massachusetts","id":"1840000413"},
{"city":"Fitchburg","lat":"42.5912","lng":"-71.8156","state":"Massachusetts","id":"1840000435"},
{"city":"Lawrence","lat":"42.7003","lng":"-71.1626","state":"Massachusetts","id":"1840000408"},
{"city":"Revere","lat":"42.4188","lng":"-71.0040","state":"Massachusetts","id":"1840000457"},
{"city":"New Bedford","lat":"41.6697","lng":"-70.9428","state":"Massachusetts","id":"1840003219"},
{"city":"Beverly","lat":"42.5681","lng":"-70.8627","state":"Massachusetts","id":"1840000411"},
{"city":"Woburn","lat":"42.4868","lng":"-71.1543","state":"Massachusetts","id":"1840003124"},
{"city":"Chelsea","lat":"42.3959","lng":"-71.0325","state":"Massachusetts","id":"1840000456"},
{"city":"Worcester","lat":"42.2705","lng":"-71.8079","state":"Massachusetts","id":"1840000434"},
{"city":"Melrose","lat":"42.4556","lng":"-71.0590","state":"Massachusetts","id":"1840000432"},
{"city":"Peabody","lat":"42.5335","lng":"-70.9724","state":"Massachusetts","id":"1840000414"},
{"city":"Springfield","lat":"42.1155","lng":"-72.5395","state":"Massachusetts","id":"1840000466"},
{"city":"Lowell","lat":"42.6389","lng":"-71.3217","state":"Massachusetts","id":"1840000426"},
{"city":"Leominster","lat":"42.5209","lng":"-71.7717","state":"Massachusetts","id":"1840000437"},
{"city":"Gardner","lat":"42.5845","lng":"-71.9868","state":"Massachusetts","id":"1840000436"},
{"city":"Malden","lat":"42.4305","lng":"-71.0576","state":"Massachusetts","id":"1840000430"},
{"city":"Lynn","lat":"42.4778","lng":"-70.9662","state":"Massachusetts","id":"1840000409"},
{"city":"Attleboro","lat":"41.9311","lng":"-71.2950","state":"Massachusetts","id":"1840000496"},
{"city":"Fall River","lat":"41.7136","lng":"-71.1014","state":"Massachusetts","id":"1840000497"},
{"city":"Taunton","lat":"41.9036","lng":"-71.0943","state":"Massachusetts","id":"1840003220"}
]
