[
{"city":"Savage","lat":"44.7545","lng":"-93.3632","state":"Minnesota","id":"1840008957"},
{"city":"East Bethel","lat":"45.3556","lng":"-93.2035","state":"Minnesota","id":"1840007797"},
{"city":"Maple Grove","lat":"45.1088","lng":"-93.4626","state":"Minnesota","id":"1840008923"},
{"city":"Lake City","lat":"44.4453","lng":"-92.2794","state":"Minnesota","id":"1840000321"},
{"city":"Minnetonka","lat":"44.9324","lng":"-93.4601","state":"Minnesota","id":"1840007831"},
{"city":"International Falls","lat":"48.5884","lng":"-93.4084","state":"Minnesota","id":"1840007684"},
{"city":"Brooklyn Center","lat":"45.0681","lng":"-93.3162","state":"Minnesota","id":"1840004022"},
{"city":"Fridley","lat":"45.0842","lng":"-93.2596","state":"Minnesota","id":"1840007798"},
{"city":"Hopkins","lat":"44.9259","lng":"-93.4058","state":"Minnesota","id":"1840006749"},
{"city":"Red Wing","lat":"44.5818","lng":"-92.6041","state":"Minnesota","id":"1840008959"},
{"city":"West Saint Paul","lat":"44.9019","lng":"-93.0857","state":"Minnesota","id":"1840010012"},
{"city":"White Bear Lake","lat":"45.0654","lng":"-93.0149","state":"Minnesota","id":"1840010005"},
{"city":"Hermantown","lat":"46.8058","lng":"-92.2407","state":"Minnesota","id":"1840006593"},
{"city":"Little Canada","lat":"45.0244","lng":"-93.0863","state":"Minnesota","id":"1840008936"},
{"city":"Shorewood","lat":"44.9161","lng":"-93.5743","state":"Minnesota","id":"1840008925"},
{"city":"Buffalo","lat":"45.1786","lng":"-93.8663","state":"Minnesota","id":"1840006703"},
{"city":"Glencoe","lat":"44.7702","lng":"-94.1494","state":"Minnesota","id":"1840007845"},
{"city":"Mound","lat":"44.9325","lng":"-93.6598","state":"Minnesota","id":"1840007828"},
{"city":"Prior Lake","lat":"44.7250","lng":"-93.4410","state":"Minnesota","id":"1840008956"},
{"city":"Edina","lat":"44.8913","lng":"-93.3602","state":"Minnesota","id":"1840007822"},
{"city":"Brainerd","lat":"46.3551","lng":"-94.1981","state":"Minnesota","id":"1840006644"},
{"city":"Byron","lat":"44.0379","lng":"-92.6418","state":"Minnesota","id":"1840006809"},
{"city":"Owatonna","lat":"44.0915","lng":"-93.2308","state":"Minnesota","id":"1840008983"},
{"city":"Roseville","lat":"45.0155","lng":"-93.1544","state":"Minnesota","id":"1840008939"},
{"city":"Mahtomedi","lat":"45.0616","lng":"-92.9662","state":"Minnesota","id":"1840008913"},
{"city":"Saint Cloud","lat":"45.5339","lng":"-94.1718","state":"Minnesota","id":"1840008881"},
{"city":"Jordan","lat":"44.6650","lng":"-93.6350","state":"Minnesota","id":"1840007864"},
{"city":"Montevideo","lat":"44.9508","lng":"-95.7157","state":"Minnesota","id":"1840007837"},
{"city":"Mounds View","lat":"45.1071","lng":"-93.2077","state":"Minnesota","id":"1840007840"},
{"city":"Anoka","lat":"45.2100","lng":"-93.3894","state":"Minnesota","id":"1840006717"},
{"city":"Crookston","lat":"47.7747","lng":"-96.6062","state":"Minnesota","id":"1840006604"},
{"city":"Fairmont","lat":"43.6441","lng":"-94.4618","state":"Minnesota","id":"1840007950"},
{"city":"Hibbing","lat":"47.3981","lng":"-92.9487","state":"Minnesota","id":"1840006594"},
{"city":"Northfield","lat":"44.4553","lng":"-93.1697","state":"Minnesota","id":"1840007891"},
{"city":"Wyoming","lat":"45.3365","lng":"-92.9765","state":"Minnesota","id":"1840009992"},
{"city":"Chanhassen","lat":"44.8544","lng":"-93.5621","state":"Minnesota","id":"1840006759"},
{"city":"Oak Grove","lat":"45.3407","lng":"-93.3264","state":"Minnesota","id":"1840007799"},
{"city":"Monticello","lat":"45.2977","lng":"-93.7979","state":"Minnesota","id":"1840007795"},
{"city":"North Oaks","lat":"45.1002","lng":"-93.0882","state":"Minnesota","id":"1840007842"},
{"city":"Rogers","lat":"45.1865","lng":"-93.5781","state":"Minnesota","id":"1840008932"},
{"city":"Belle Plaine","lat":"44.6190","lng":"-93.7641","state":"Minnesota","id":"1840006775"},
{"city":"Waseca","lat":"44.0826","lng":"-93.5026","state":"Minnesota","id":"1840010030"},
{"city":"Isanti","lat":"45.4928","lng":"-93.2406","state":"Minnesota","id":"1840007789"},
{"city":"Forest Lake","lat":"45.2536","lng":"-92.9583","state":"Minnesota","id":"1840007808"},
{"city":"Lake Elmo","lat":"44.9944","lng":"-92.9032","state":"Minnesota","id":"1840007814"},
{"city":"New Ulm","lat":"44.3120","lng":"-94.4678","state":"Minnesota","id":"1840007894"},
{"city":"Cambridge","lat":"45.5615","lng":"-93.2280","state":"Minnesota","id":"1840006692"},
{"city":"Morris","lat":"45.5861","lng":"-95.9046","state":"Minnesota","id":"1840007786"},
{"city":"Waite Park","lat":"45.5323","lng":"-94.2440","state":"Minnesota","id":"1840009989"},
{"city":"Medina","lat":"45.0327","lng":"-93.5832","state":"Minnesota","id":"1840007827"},
{"city":"Rochester","lat":"44.0152","lng":"-92.4776","state":"Minnesota","id":"1840008987"},
{"city":"Elk River","lat":"45.3313","lng":"-93.5670","state":"Minnesota","id":"1840007794"},
{"city":"Oakdale","lat":"44.9875","lng":"-92.9641","state":"Minnesota","id":"1840007813"},
{"city":"Litchfield","lat":"45.1222","lng":"-94.5254","state":"Minnesota","id":"1840008912"},
{"city":"Little Falls","lat":"45.9831","lng":"-94.3602","state":"Minnesota","id":"1840008861"},
{"city":"Hastings","lat":"44.7318","lng":"-92.8537","state":"Minnesota","id":"1840006770"},
{"city":"Detroit Lakes","lat":"46.8057","lng":"-95.8436","state":"Minnesota","id":"1840006632"},
{"city":"Rosemount","lat":"44.7466","lng":"-93.0662","state":"Minnesota","id":"1840008951"},
{"city":"Columbia Heights","lat":"45.0484","lng":"-93.2473","state":"Minnesota","id":"1840006712"},
{"city":"Big Lake","lat":"45.3418","lng":"-93.7435","state":"Minnesota","id":"1840006701"},
{"city":"Lino Lakes","lat":"45.1679","lng":"-93.0830","state":"Minnesota","id":"1840008902"},
{"city":"Farmington","lat":"44.6573","lng":"-93.1689","state":"Minnesota","id":"1840007853"},
{"city":"Winona","lat":"44.0510","lng":"-91.6691","state":"Minnesota","id":"1840010034"},
{"city":"Albert Lea","lat":"43.6548","lng":"-93.3643","state":"Minnesota","id":"1840006824"},
{"city":"Mankato","lat":"44.1720","lng":"-93.9782","state":"Minnesota","id":"1840008975"},
{"city":"Virginia","lat":"47.5172","lng":"-92.5121","state":"Minnesota","id":"1840009954"},
{"city":"Grand Rapids","lat":"47.2379","lng":"-93.5326","state":"Minnesota","id":"1840007714"},
{"city":"Fergus Falls","lat":"46.2850","lng":"-96.0763","state":"Minnesota","id":"1840007747"},
{"city":"Coon Rapids","lat":"45.1756","lng":"-93.3095","state":"Minnesota","id":"1840006714"},
{"city":"Robbinsdale","lat":"45.0261","lng":"-93.3331","state":"Minnesota","id":"1840008931"},
{"city":"Worthington","lat":"43.6279","lng":"-95.5984","state":"Minnesota","id":"1840010036"},
{"city":"Burnsville","lat":"44.7648","lng":"-93.2794","state":"Minnesota","id":"1840006766"},
{"city":"Arden Hills","lat":"45.0722","lng":"-93.1671","state":"Minnesota","id":"1840006752"},
{"city":"Spring Lake Park","lat":"45.1161","lng":"-93.2452","state":"Minnesota","id":"1840008903"},
{"city":"Vadnais Heights","lat":"45.0570","lng":"-93.0747","state":"Minnesota","id":"1840010004"},
{"city":"Golden Valley","lat":"44.9900","lng":"-93.3591","state":"Minnesota","id":"1840007824"},
{"city":"Shoreview","lat":"45.0842","lng":"-93.1358","state":"Minnesota","id":"1840008938"},
{"city":"Crystal","lat":"45.0377","lng":"-93.3598","state":"Minnesota","id":"1840006745"},
{"city":"New Prague","lat":"44.5459","lng":"-93.5758","state":"Minnesota","id":"1840007882"},
{"city":"Apple Valley","lat":"44.7456","lng":"-93.2006","state":"Minnesota","id":"1840006768"},
{"city":"Andover","lat":"45.2571","lng":"-93.3264","state":"Minnesota","id":"1840006716"},
{"city":"Stillwater","lat":"45.0567","lng":"-92.8283","state":"Minnesota","id":"1840008914"},
{"city":"Eagan","lat":"44.8168","lng":"-93.1638","state":"Minnesota","id":"1840007852"},
{"city":"Thief River Falls","lat":"48.1111","lng":"-96.1774","state":"Minnesota","id":"1840008825"},
{"city":"Willmar","lat":"45.1224","lng":"-95.0559","state":"Minnesota","id":"1840009995"},
{"city":"North Mankato","lat":"44.1810","lng":"-94.0377","state":"Minnesota","id":"1840007896"},
{"city":"Minneapolis","lat":"44.9635","lng":"-93.2679","state":"Minnesota","id":"1840007830"},
{"city":"Cottage Grove","lat":"44.8161","lng":"-92.9274","state":"Minnesota","id":"1840006735"},
{"city":"Maplewood","lat":"44.9840","lng":"-93.0247","state":"Minnesota","id":"1840008937"},
{"city":"Eden Prairie","lat":"44.8487","lng":"-93.4595","state":"Minnesota","id":"1840007821"},
{"city":"Saint Francis","lat":"45.3990","lng":"-93.3896","state":"Minnesota","id":"1840008905"},
{"city":"Stewartville","lat":"43.8602","lng":"-92.4890","state":"Minnesota","id":"1840008985"},
{"city":"Kasson","lat":"44.0328","lng":"-92.7483","state":"Minnesota","id":"1840007913"},
{"city":"Inver Grove Heights","lat":"44.8246","lng":"-93.0596","state":"Minnesota","id":"1840007858"},
{"city":"New Hope","lat":"45.0375","lng":"-93.3869","state":"Minnesota","id":"1840007829"},
{"city":"Waconia","lat":"44.8411","lng":"-93.7933","state":"Minnesota","id":"1840010008"},
{"city":"Marshall","lat":"44.4488","lng":"-95.7897","state":"Minnesota","id":"1840007879"},
{"city":"Saint Peter","lat":"44.3295","lng":"-93.9643","state":"Minnesota","id":"1840008972"},
{"city":"Delano","lat":"45.0377","lng":"-93.7918","state":"Minnesota","id":"1840006710"},
{"city":"Saint Joseph","lat":"45.5609","lng":"-94.3075","state":"Minnesota","id":"1840008882"},
{"city":"Saint Michael","lat":"45.2014","lng":"-93.6919","state":"Minnesota","id":"1840008901"},
{"city":"North Branch","lat":"45.5137","lng":"-92.9601","state":"Minnesota","id":"1840007790"},
{"city":"South Saint Paul","lat":"44.8874","lng":"-93.0408","state":"Minnesota","id":"1840008948"},
{"city":"Zimmerman","lat":"45.4415","lng":"-93.5977","state":"Minnesota","id":"1840009993"},
{"city":"Faribault","lat":"44.2986","lng":"-93.2787","state":"Minnesota","id":"1840007889"},
{"city":"Saint Paul Park","lat":"44.8359","lng":"-92.9949","state":"Minnesota","id":"1840008917"},
{"city":"Bloomington","lat":"44.8306","lng":"-93.3150","state":"Minnesota","id":"1840006747"},
{"city":"Corcoran","lat":"45.1089","lng":"-93.5836","state":"Minnesota","id":"1840006744"},
{"city":"Otsego","lat":"45.2660","lng":"-93.6200","state":"Minnesota","id":"1840008899"},
{"city":"Shakopee","lat":"44.7745","lng":"-93.4763","state":"Minnesota","id":"1840008955"},
{"city":"Victoria","lat":"44.8634","lng":"-93.6590","state":"Minnesota","id":"1840010007"},
{"city":"Chaska","lat":"44.8166","lng":"-93.6092","state":"Minnesota","id":"1840006760"},
{"city":"Alexandria","lat":"45.8748","lng":"-95.3784","state":"Minnesota","id":"1840006680"},
{"city":"Orono","lat":"44.9647","lng":"-93.5904","state":"Minnesota","id":"1840008927"},
{"city":"Mendota Heights","lat":"44.8813","lng":"-93.1402","state":"Minnesota","id":"1840007855"},
{"city":"Saint Louis Park","lat":"44.9488","lng":"-93.3650","state":"Minnesota","id":"1840008935"},
{"city":"Cloquet","lat":"46.7221","lng":"-92.4924","state":"Minnesota","id":"1840006646"},
{"city":"Minnetrista","lat":"44.9355","lng":"-93.7103","state":"Minnesota","id":"1840007833"},
{"city":"Albertville","lat":"45.2365","lng":"-93.6617","state":"Minnesota","id":"1840006706"},
{"city":"Baxter","lat":"46.3420","lng":"-94.2800","state":"Minnesota","id":"1840006643"},
{"city":"Lindstrom","lat":"45.3869","lng":"-92.8475","state":"Minnesota","id":"1840008892"},
{"city":"Hugo","lat":"45.1671","lng":"-92.9588","state":"Minnesota","id":"1840006739"},
{"city":"Plymouth","lat":"45.0225","lng":"-93.4617","state":"Minnesota","id":"1840008929"},
{"city":"Blaine","lat":"45.1696","lng":"-93.2078","state":"Minnesota","id":"1840006719"},
{"city":"Brooklyn Park","lat":"45.1112","lng":"-93.3505","state":"Minnesota","id":"1840004023"},
{"city":"Richfield","lat":"44.8762","lng":"-93.2826","state":"Minnesota","id":"1840008930"},
{"city":"Dayton","lat":"45.1905","lng":"-93.4757","state":"Minnesota","id":"1840006750"},
{"city":"Ramsey","lat":"45.2618","lng":"-93.4494","state":"Minnesota","id":"1840008904"},
{"city":"North Saint Paul","lat":"45.0137","lng":"-92.9995","state":"Minnesota","id":"1840007843"},
{"city":"Hutchinson","lat":"44.8856","lng":"-94.3763","state":"Minnesota","id":"1840006756"},
{"city":"Bemidji","lat":"47.4798","lng":"-94.8833","state":"Minnesota","id":"1840006600"},
{"city":"Chisago City","lat":"45.3475","lng":"-92.9115","state":"Minnesota","id":"1840000269"},
{"city":"Austin","lat":"43.6720","lng":"-92.9744","state":"Minnesota","id":"1840006830"},
{"city":"Lakeville","lat":"44.6777","lng":"-93.2522","state":"Minnesota","id":"1840007859"},
{"city":"Sauk Rapids","lat":"45.5981","lng":"-94.1540","state":"Minnesota","id":"1840008873"},
{"city":"Falcon Heights","lat":"44.9899","lng":"-93.1770","state":"Minnesota","id":"1840007838"},
{"city":"Champlin","lat":"45.1703","lng":"-93.3904","state":"Minnesota","id":"1840006746"},
{"city":"Woodbury","lat":"44.9056","lng":"-92.9231","state":"Minnesota","id":"1840009998"},
{"city":"Sartell","lat":"45.6187","lng":"-94.2202","state":"Minnesota","id":"1840008886"},
{"city":"Duluth","lat":"46.7797","lng":"-92.1334","state":"Minnesota","id":"1840007685"},
{"city":"Saint Paul","lat":"44.9477","lng":"-93.1040","state":"Minnesota","id":"1840008940"},
{"city":"East Grand Forks","lat":"47.9283","lng":"-97.0137","state":"Minnesota","id":"1840007700"},
{"city":"Saint Anthony","lat":"45.0275","lng":"-93.2174","state":"Minnesota","id":"1840008933"},
{"city":"New Brighton","lat":"45.0658","lng":"-93.2061","state":"Minnesota","id":"1840007841"},
{"city":"Moorhead","lat":"46.8674","lng":"-96.7457","state":"Minnesota","id":"1840007731"},
{"city":"Ham Lake","lat":"45.2545","lng":"-93.2039","state":"Minnesota","id":"1840006720"}
]
