[
{"city":"Central Falls","lat":"41.8900","lng":"-71.3933","state":"Rhode Island","id":"1840003286"},
{"city":"Providence","lat":"41.8229","lng":"-71.4186","state":"Rhode Island","id":"1840003289"},
{"city":"Warwick","lat":"41.7061","lng":"-71.4334","state":"Rhode Island","id":"1840003344"},
{"city":"Cranston","lat":"41.7658","lng":"-71.4858","state":"Rhode Island","id":"1840003287"},
{"city":"East Providence","lat":"41.8064","lng":"-71.3565","state":"Rhode Island","id":"1840003288"},
{"city":"Newport","lat":"41.4803","lng":"-71.3205","state":"Rhode Island","id":"1840003355"},
{"city":"Woonsocket","lat":"42.0010","lng":"-71.4993","state":"Rhode Island","id":"1840003290"},
{"city":"Pawtucket","lat":"41.8743","lng":"-71.3744","state":"Rhode Island","id":"1840003285"}
]
