[
{"city":"Clover","lat":"35.1124","lng":"-81.2201","state":"South Carolina","id":"1840016478"},
{"city":"Columbia","lat":"34.0366","lng":"-80.9043","state":"South Carolina","id":"1840014730"},
{"city":"Lake City","lat":"33.8676","lng":"-79.7533","state":"South Carolina","id":"1840014715"},
{"city":"Hardeeville","lat":"32.2949","lng":"-81.0324","state":"South Carolina","id":"1840013808"},
{"city":"Greer","lat":"34.9352","lng":"-82.2336","state":"South Carolina","id":"1840013502"},
{"city":"Dillon","lat":"34.4223","lng":"-79.3721","state":"South Carolina","id":"1840014676"},
{"city":"Mount Pleasant","lat":"32.8532","lng":"-79.8269","state":"South Carolina","id":"1840017286"},
{"city":"Kingstree","lat":"33.6665","lng":"-79.8292","state":"South Carolina","id":"1840016790"},
{"city":"Goose Creek","lat":"32.9920","lng":"-80.0063","state":"South Carolina","id":"1840013761"},
{"city":"Summerville","lat":"33.0038","lng":"-80.1794","state":"South Carolina","id":"1840016886"},
{"city":"Laurens","lat":"34.5014","lng":"-82.0232","state":"South Carolina","id":"1840014668"},
{"city":"Lexington","lat":"33.9881","lng":"-81.2200","state":"South Carolina","id":"1840016724"},
{"city":"Hartsville","lat":"34.3679","lng":"-80.0829","state":"South Carolina","id":"1840013610"},
{"city":"Bluffton","lat":"32.2129","lng":"-80.9316","state":"South Carolina","id":"1840015799"},
{"city":"Irmo","lat":"34.1016","lng":"-81.1949","state":"South Carolina","id":"1840016723"},
{"city":"Mullins","lat":"34.2042","lng":"-79.2535","state":"South Carolina","id":"1840014719"},
{"city":"Gaffney","lat":"35.0742","lng":"-81.6558","state":"South Carolina","id":"1840013515"},
{"city":"Fort Mill","lat":"35.0072","lng":"-80.9381","state":"South Carolina","id":"1840016479"},
{"city":"Hilton Head Island","lat":"32.1896","lng":"-80.7499","state":"South Carolina","id":"1840016974"},
{"city":"Camden","lat":"34.2564","lng":"-80.6085","state":"South Carolina","id":"1840013598"},
{"city":"Clinton","lat":"34.4780","lng":"-81.8640","state":"South Carolina","id":"1840014667"},
{"city":"Batesburg-Leesville","lat":"33.9117","lng":"-81.5308","state":"South Carolina","id":"1840003900"},
{"city":"Walterboro","lat":"32.9007","lng":"-80.6751","state":"South Carolina","id":"1840015757"},
{"city":"Hollywood","lat":"32.7523","lng":"-80.2106","state":"South Carolina","id":"1840017281"},
{"city":"Orangeburg","lat":"33.4928","lng":"-80.8671","state":"South Carolina","id":"1840014812"},
{"city":"Charleston","lat":"32.8137","lng":"-79.9643","state":"South Carolina","id":"1840015163"},
{"city":"Aiken","lat":"33.5303","lng":"-81.7271","state":"South Carolina","id":"1840013722"},
{"city":"Sumter","lat":"33.9393","lng":"-80.3929","state":"South Carolina","id":"1840015612"},
{"city":"Belton","lat":"34.5235","lng":"-82.4938","state":"South Carolina","id":"1840013582"},
{"city":"Newberry","lat":"34.2822","lng":"-81.6012","state":"South Carolina","id":"1840014694"},
{"city":"Myrtle Beach","lat":"33.7095","lng":"-78.8844","state":"South Carolina","id":"1840014717"},
{"city":"Union","lat":"34.7235","lng":"-81.6248","state":"South Carolina","id":"1840015533"},
{"city":"York","lat":"34.9968","lng":"-81.2348","state":"South Carolina","id":"1840015489"},
{"city":"North Myrtle Beach","lat":"33.8225","lng":"-78.7086","state":"South Carolina","id":"1840014718"},
{"city":"Cayce","lat":"33.9458","lng":"-81.0432","state":"South Carolina","id":"1840014734"},
{"city":"Clemson","lat":"34.6841","lng":"-82.8124","state":"South Carolina","id":"1840014626"},
{"city":"Moncks Corner","lat":"33.1716","lng":"-80.0121","state":"South Carolina","id":"1840016863"},
{"city":"Marion","lat":"34.1787","lng":"-79.3965","state":"South Carolina","id":"1840015595"},
{"city":"Darlington","lat":"34.3015","lng":"-79.8672","state":"South Carolina","id":"1840014693"},
{"city":"Anderson","lat":"34.5210","lng":"-82.6477","state":"South Carolina","id":"1840013579"},
{"city":"Central","lat":"34.7234","lng":"-82.7789","state":"South Carolina","id":"1840016494"},
{"city":"West Columbia","lat":"33.9948","lng":"-81.0878","state":"South Carolina","id":"1840015605"},
{"city":"Beaufort","lat":"32.4487","lng":"-80.7102","state":"South Carolina","id":"1840013818"},
{"city":"North Charleston","lat":"32.9086","lng":"-80.0705","state":"South Carolina","id":"1840015164"},
{"city":"Conway","lat":"33.8406","lng":"-79.0418","state":"South Carolina","id":"1840014716"},
{"city":"Bennettsville","lat":"34.6303","lng":"-79.6874","state":"South Carolina","id":"1840013583"},
{"city":"Simpsonville","lat":"34.7295","lng":"-82.2569","state":"South Carolina","id":"1840015477"},
{"city":"Georgetown","lat":"33.3595","lng":"-79.2960","state":"South Carolina","id":"1840013743"},
{"city":"Cheraw","lat":"34.6978","lng":"-79.8988","state":"South Carolina","id":"1840016582"},
{"city":"Bishopville","lat":"34.2202","lng":"-80.2483","state":"South Carolina","id":"1840013634"},
{"city":"Spartanburg","lat":"34.9437","lng":"-81.9256","state":"South Carolina","id":"1840015482"},
{"city":"Greenwood","lat":"34.1944","lng":"-82.1541","state":"South Carolina","id":"1840013626"},
{"city":"Ridgeland","lat":"32.4681","lng":"-80.9178","state":"South Carolina","id":"1840018086"},
{"city":"Hanahan","lat":"32.9303","lng":"-80.0031","state":"South Carolina","id":"1840014256"},
{"city":"Rock Hill","lat":"34.9413","lng":"-81.0260","state":"South Carolina","id":"1840014618"},
{"city":"Chester","lat":"34.7050","lng":"-81.2135","state":"South Carolina","id":"1840014663"},
{"city":"Seneca","lat":"34.6815","lng":"-82.9609","state":"South Carolina","id":"1840015506"},
{"city":"Port Royal","lat":"32.3579","lng":"-80.7047","state":"South Carolina","id":"1840016975"},
{"city":"Greenville","lat":"34.8364","lng":"-82.3649","state":"South Carolina","id":"1840013501"},
{"city":"Fountain Inn","lat":"34.6988","lng":"-82.1991","state":"South Carolina","id":"1840013500"},
{"city":"Forest Acres","lat":"34.0322","lng":"-80.9718","state":"South Carolina","id":"1840013653"},
{"city":"Abbeville","lat":"34.1787","lng":"-82.3774","state":"South Carolina","id":"1840013618"},
{"city":"North Augusta","lat":"33.5211","lng":"-81.9545","state":"South Carolina","id":"1840014788"},
{"city":"Tega Cay","lat":"35.0374","lng":"-81.0124","state":"South Carolina","id":"1840015488"},
{"city":"Florence","lat":"34.1782","lng":"-79.7850","state":"South Carolina","id":"1840013643"},
{"city":"Lancaster","lat":"34.7247","lng":"-80.7801","state":"South Carolina","id":"1840014630"},
{"city":"Mauldin","lat":"34.7864","lng":"-82.2997","state":"South Carolina","id":"1840015476"},
{"city":"Travelers Rest","lat":"34.9684","lng":"-82.4417","state":"South Carolina","id":"1840015478"},
{"city":"Easley","lat":"34.8191","lng":"-82.5830","state":"South Carolina","id":"1840013526"}
]
