[
{"city":"Burnet","lat":"30.7508","lng":"-98.2375","state":"Texas","id":"1840019567"},
{"city":"Roma-Los Saenz","lat":"26.4153","lng":"-99.0060","state":"Texas","id":"1840037014"},
{"city":"Hondo","lat":"29.3532","lng":"-99.1621","state":"Texas","id":"1840020963"},
{"city":"Frisco","lat":"33.1551","lng":"-96.8219","state":"Texas","id":"1840020654"},
{"city":"Onalaska","lat":"30.8216","lng":"-95.1111","state":"Texas","id":"1840020858"},
{"city":"Waco","lat":"31.5597","lng":"-97.1882","state":"Texas","id":"1840022140"},
{"city":"Pampa","lat":"35.5479","lng":"-100.9650","state":"Texas","id":"1840022939"},
{"city":"Sherman","lat":"33.6266","lng":"-96.6195","state":"Texas","id":"1840021953"},
{"city":"Cedar Hill","lat":"32.5809","lng":"-96.9592","state":"Texas","id":"1840019433"},
{"city":"Pasadena","lat":"29.6583","lng":"-95.1498","state":"Texas","id":"1840020930"},
{"city":"Woodway","lat":"31.4987","lng":"-97.2315","state":"Texas","id":"1840022142"},
{"city":"Vernon","lat":"34.1480","lng":"-99.3000","state":"Texas","id":"1840021912"},
{"city":"Crowley","lat":"32.5780","lng":"-97.3584","state":"Texas","id":"1840019431"},
{"city":"Denver City","lat":"32.9680","lng":"-102.8319","state":"Texas","id":"1840022029"},
{"city":"Bay City","lat":"28.9816","lng":"-95.9603","state":"Texas","id":"1840019682"},
{"city":"Irving","lat":"32.8584","lng":"-96.9702","state":"Texas","id":"1840019438"},
{"city":"Coppell","lat":"32.9639","lng":"-96.9907","state":"Texas","id":"1840019439"},
{"city":"Lucas","lat":"33.0950","lng":"-96.5792","state":"Texas","id":"1840020656"},
{"city":"Marlin","lat":"31.3085","lng":"-96.8934","state":"Texas","id":"1840020844"},
{"city":"El Campo","lat":"29.1983","lng":"-96.2738","state":"Texas","id":"1840020966"},
{"city":"Arlington","lat":"32.6998","lng":"-97.1251","state":"Texas","id":"1840019422"},
{"city":"Addison","lat":"32.9587","lng":"-96.8356","state":"Texas","id":"1840022057"},
{"city":"Mexia","lat":"31.6809","lng":"-96.4833","state":"Texas","id":"1840020822"},
{"city":"Pharr","lat":"26.1687","lng":"-98.1904","state":"Texas","id":"1840021030"},
{"city":"Fort Worth","lat":"32.7813","lng":"-97.3466","state":"Texas","id":"1840020696"},
{"city":"White Oak","lat":"32.5313","lng":"-94.8564","state":"Texas","id":"1840022080"},
{"city":"Floresville","lat":"29.1403","lng":"-98.1627","state":"Texas","id":"1840020981"},
{"city":"Granbury","lat":"32.4480","lng":"-97.7681","state":"Texas","id":"1840020749"},
{"city":"Nacogdoches","lat":"31.6131","lng":"-94.6527","state":"Texas","id":"1840020820"},
{"city":"Aubrey","lat":"33.3029","lng":"-96.9843","state":"Texas","id":"1840019387"},
{"city":"Gun Barrel City","lat":"32.3277","lng":"-96.1286","state":"Texas","id":"1840020772"},
{"city":"Brenham","lat":"30.1576","lng":"-96.3957","state":"Texas","id":"1840019604"},
{"city":"Rosenberg","lat":"29.5402","lng":"-95.8158","state":"Texas","id":"1840020948"},
{"city":"Vidor","lat":"30.1291","lng":"-93.9967","state":"Texas","id":"1840022193"},
{"city":"New Braunfels","lat":"29.6995","lng":"-98.1152","state":"Texas","id":"1840021341"},
{"city":"Alamo Heights","lat":"29.4828","lng":"-98.4681","state":"Texas","id":"1840019653"},
{"city":"Angleton","lat":"29.1689","lng":"-95.4288","state":"Texas","id":"1840019672"},
{"city":"Lubbock","lat":"33.5665","lng":"-101.8867","state":"Texas","id":"1840020604"},
{"city":"Mathis","lat":"28.0909","lng":"-97.8170","state":"Texas","id":"1840021004"},
{"city":"Galveston","lat":"29.2487","lng":"-94.8910","state":"Texas","id":"1840020970"},
{"city":"Levelland","lat":"33.5806","lng":"-102.3636","state":"Texas","id":"1840020606"},
{"city":"Corpus Christi","lat":"27.7173","lng":"-97.3822","state":"Texas","id":"1840019718"},
{"city":"Duncanville","lat":"32.6460","lng":"-96.9127","state":"Texas","id":"1840019442"},
{"city":"Anna","lat":"33.3475","lng":"-96.5512","state":"Texas","id":"1840019397"},
{"city":"Galena Park","lat":"29.7450","lng":"-95.2334","state":"Texas","id":"1840020922"},
{"city":"Lewisville","lat":"33.0453","lng":"-96.9823","state":"Texas","id":"1840020639"},
{"city":"DeSoto","lat":"32.5992","lng":"-96.8634","state":"Texas","id":"1840019441"},
{"city":"Port Lavaca","lat":"28.6181","lng":"-96.6278","state":"Texas","id":"1840020996"},
{"city":"Wichita Falls","lat":"33.9072","lng":"-98.5293","state":"Texas","id":"1840021923"},
{"city":"Rockport","lat":"28.0351","lng":"-97.0663","state":"Texas","id":"1840020999"},
{"city":"Sanger","lat":"33.3736","lng":"-97.1697","state":"Texas","id":"1840022004"},
{"city":"Watauga","lat":"32.8718","lng":"-97.2515","state":"Texas","id":"1840022049"},
{"city":"Willow Park","lat":"32.7550","lng":"-97.6501","state":"Texas","id":"1840022042"},
{"city":"Mineola","lat":"32.6461","lng":"-95.4774","state":"Texas","id":"1840020685"},
{"city":"West University Place","lat":"29.7157","lng":"-95.4321","state":"Texas","id":"1840022205"},
{"city":"Kenedy","lat":"28.8176","lng":"-97.8518","state":"Texas","id":"1840019684"},
{"city":"Lake Jackson","lat":"29.0520","lng":"-95.4518","state":"Texas","id":"1840020980"},
{"city":"McAllen","lat":"26.2203","lng":"-98.2457","state":"Texas","id":"1840021024"},
{"city":"Harker Heights","lat":"31.0578","lng":"-97.6443","state":"Texas","id":"1840020851"},
{"city":"Elgin","lat":"30.3529","lng":"-97.3887","state":"Texas","id":"1840020903"},
{"city":"Little Elm","lat":"33.1792","lng":"-96.9284","state":"Texas","id":"1840020640"},
{"city":"Kaufman","lat":"32.5775","lng":"-96.3121","state":"Texas","id":"1840019450"},
{"city":"Rhome","lat":"33.0645","lng":"-97.4779","state":"Texas","id":"1840020632"},
{"city":"Cleveland","lat":"30.3399","lng":"-95.0992","state":"Texas","id":"1840019596"},
{"city":"Athens","lat":"32.2053","lng":"-95.8348","state":"Texas","id":"1840019500"},
{"city":"Georgetown","lat":"30.6669","lng":"-97.6940","state":"Texas","id":"1840020875"},
{"city":"Rio Grande City","lat":"26.3808","lng":"-98.8215","state":"Texas","id":"1840021016"},
{"city":"Fairview","lat":"33.1401","lng":"-96.6123","state":"Texas","id":"1840022021"},
{"city":"Canyon","lat":"34.9877","lng":"-101.9179","state":"Texas","id":"1840019180"},
{"city":"San Angelo","lat":"31.4424","lng":"-100.4503","state":"Texas","id":"1840022146"},
{"city":"Freeport","lat":"28.9428","lng":"-95.3622","state":"Texas","id":"1840020974"},
{"city":"Belton","lat":"31.0564","lng":"-97.4789","state":"Texas","id":"1840019556"},
{"city":"Portland","lat":"27.8858","lng":"-97.3201","state":"Texas","id":"1840021006"},
{"city":"Sinton","lat":"28.0402","lng":"-97.5147","state":"Texas","id":"1840022251"},
{"city":"Lumberton","lat":"30.2562","lng":"-94.2071","state":"Texas","id":"1840020896"},
{"city":"Alice","lat":"27.7556","lng":"-98.0653","state":"Texas","id":"1840019714"},
{"city":"Alamo","lat":"26.1795","lng":"-98.1183","state":"Texas","id":"1840019732"},
{"city":"Texarkana","lat":"33.4487","lng":"-94.0814","state":"Texas","id":"1840021987"},
{"city":"Decatur","lat":"33.2277","lng":"-97.5899","state":"Texas","id":"1840019385"},
{"city":"San Marcos","lat":"29.8766","lng":"-97.9311","state":"Texas","id":"1840022188"},
{"city":"Perryton","lat":"36.3931","lng":"-100.7974","state":"Texas","id":"1840020379"},
{"city":"Haltom City","lat":"32.8176","lng":"-97.2707","state":"Texas","id":"1840020698"},
{"city":"Cameron","lat":"30.8607","lng":"-96.9769","state":"Texas","id":"1840019562"},
{"city":"Boerne","lat":"29.7856","lng":"-98.7297","state":"Texas","id":"1840019623"},
{"city":"La Feria","lat":"26.1544","lng":"-97.8255","state":"Texas","id":"1840021041"},
{"city":"Pleasanton","lat":"28.9636","lng":"-98.4940","state":"Texas","id":"1840020988"},
{"city":"Weatherford","lat":"32.7547","lng":"-97.7665","state":"Texas","id":"1840022041"},
{"city":"Melissa","lat":"33.2896","lng":"-96.5554","state":"Texas","id":"1840020658"},
{"city":"Hillsboro","lat":"32.0092","lng":"-97.1151","state":"Texas","id":"1840020783"},
{"city":"Waxahachie","lat":"32.4035","lng":"-96.8428","state":"Texas","id":"1840022083"},
{"city":"Mission","lat":"26.2040","lng":"-98.3251","state":"Texas","id":"1840021026"},
{"city":"Dumas","lat":"35.8613","lng":"-101.9642","state":"Texas","id":"1840019086"},
{"city":"Keller","lat":"32.9337","lng":"-97.2256","state":"Texas","id":"1840019428"},
{"city":"Atlanta","lat":"33.1136","lng":"-94.1672","state":"Texas","id":"1840019407"},
{"city":"Rio Bravo","lat":"27.3648","lng":"-99.4820","state":"Texas","id":"1840021001"},
{"city":"Uvalde","lat":"29.2153","lng":"-99.7782","state":"Texas","id":"1840022231"},
{"city":"Lampasas","lat":"31.0659","lng":"-98.1831","state":"Texas","id":"1840020846"},
{"city":"Hereford","lat":"34.8232","lng":"-102.4001","state":"Texas","id":"1840020462"},
{"city":"Fulshear","lat":"29.6931","lng":"-95.8792","state":"Texas","id":"1840020946"},
{"city":"Orange","lat":"30.1146","lng":"-93.7637","state":"Texas","id":"1840020910"},
{"city":"Bellmead","lat":"31.6025","lng":"-97.0896","state":"Texas","id":"1840019531"},
{"city":"Sunnyvale","lat":"32.7974","lng":"-96.5576","state":"Texas","id":"1840023031"},
{"city":"Friendswood","lat":"29.5109","lng":"-95.1980","state":"Texas","id":"1840020969"},
{"city":"Azle","lat":"32.8954","lng":"-97.5379","state":"Texas","id":"1840019423"},
{"city":"Trophy Club","lat":"33.0038","lng":"-97.1897","state":"Texas","id":"1840022993"},
{"city":"Taylor","lat":"30.5743","lng":"-97.4233","state":"Texas","id":"1840022165"},
{"city":"Roma","lat":"26.4153","lng":"-99.0060","state":"Texas","id":"1840021017"},
{"city":"Carrollton","lat":"32.9885","lng":"-96.9001","state":"Texas","id":"1840019436"},
{"city":"Lamesa","lat":"32.7333","lng":"-101.9542","state":"Texas","id":"1840020725"},
{"city":"Yoakum","lat":"29.2933","lng":"-97.1469","state":"Texas","id":"1840022242"},
{"city":"McKinney","lat":"33.1989","lng":"-96.6678","state":"Texas","id":"1840020657"},
{"city":"Bowie","lat":"33.5566","lng":"-97.8440","state":"Texas","id":"1840019314"},
{"city":"Kirby","lat":"29.4611","lng":"-98.3859","state":"Texas","id":"1840020962"},
{"city":"Crystal City","lat":"28.6910","lng":"-99.8257","state":"Texas","id":"1840019688"},
{"city":"Forney","lat":"32.7453","lng":"-96.4496","state":"Texas","id":"1840020734"},
{"city":"Woodcreek","lat":"30.0265","lng":"-98.1113","state":"Texas","id":"1840022191"},
{"city":"Kyle","lat":"30.0015","lng":"-97.8629","state":"Texas","id":"1840020907"},
{"city":"Webster","lat":"29.5317","lng":"-95.1188","state":"Texas","id":"1840022204"},
{"city":"Terrell Hills","lat":"29.4771","lng":"-98.4471","state":"Texas","id":"1840022224"},
{"city":"Deer Park","lat":"29.6897","lng":"-95.1151","state":"Texas","id":"1840019621"},
{"city":"Pecos","lat":"31.4046","lng":"-103.5057","state":"Texas","id":"1840020806"},
{"city":"Snyder","lat":"32.7136","lng":"-100.9108","state":"Texas","id":"1840022059"},
{"city":"Muleshoe","lat":"34.2292","lng":"-102.7284","state":"Texas","id":"1840020541"},
{"city":"Devine","lat":"29.1457","lng":"-98.9049","state":"Texas","id":"1840019657"},
{"city":"Laredo","lat":"27.5536","lng":"-99.4890","state":"Texas","id":"1840021002"},
{"city":"Euless","lat":"32.8507","lng":"-97.0798","state":"Texas","id":"1840020693"},
{"city":"Commerce","lat":"33.2420","lng":"-95.8999","state":"Texas","id":"1840019394"},
{"city":"Southlake","lat":"32.9545","lng":"-97.1503","state":"Texas","id":"1840022048"},
{"city":"Longview","lat":"32.5192","lng":"-94.7622","state":"Texas","id":"1840020746"},
{"city":"Wharton","lat":"29.3138","lng":"-96.1044","state":"Texas","id":"1840022229"},
{"city":"Post","lat":"33.1911","lng":"-101.3814","state":"Texas","id":"1840020667"},
{"city":"Port Isabel","lat":"26.0538","lng":"-97.2505","state":"Texas","id":"1840021040"},
{"city":"Hurst","lat":"32.8353","lng":"-97.1808","state":"Texas","id":"1840019427"},
{"city":"Kingsville","lat":"27.5095","lng":"-97.8610","state":"Texas","id":"1840021013"},
{"city":"Royse City","lat":"32.9769","lng":"-96.3213","state":"Texas","id":"1840020718"},
{"city":"Murphy","lat":"33.0186","lng":"-96.6105","state":"Texas","id":"1840020659"},
{"city":"Ingleside","lat":"27.8709","lng":"-97.2072","state":"Texas","id":"1840019709"},
{"city":"Pflugerville","lat":"30.4544","lng":"-97.6053","state":"Texas","id":"1840020892"},
{"city":"West Tawakoni","lat":"32.8975","lng":"-96.0234","state":"Texas","id":"1840022015"},
{"city":"Farmers Branch","lat":"32.9272","lng":"-96.8804","state":"Texas","id":"1840020706"},
{"city":"Del Rio","lat":"29.3706","lng":"-100.8798","state":"Texas","id":"1840019607"},
{"city":"Manvel","lat":"29.4775","lng":"-95.3634","state":"Texas","id":"1840020977"},
{"city":"Allen","lat":"33.1087","lng":"-96.6735","state":"Texas","id":"1840019396"},
{"city":"San Juan","lat":"26.1902","lng":"-98.1522","state":"Texas","id":"1840022256"},
{"city":"Highland Village","lat":"33.0897","lng":"-97.0615","state":"Texas","id":"1840020638"},
{"city":"Seminole","lat":"32.7215","lng":"-102.6504","state":"Texas","id":"1840022061"},
{"city":"Hempstead","lat":"30.0975","lng":"-96.0795","state":"Texas","id":"1840020913"},
{"city":"Tomball","lat":"30.0970","lng":"-95.6185","state":"Texas","id":"1840022203"},
{"city":"Bonham","lat":"33.5880","lng":"-96.1901","state":"Texas","id":"1840019332"},
{"city":"Sugar Land","lat":"29.5956","lng":"-95.6283","state":"Texas","id":"1840022217"},
{"city":"Leon Valley","lat":"29.4954","lng":"-98.6141","state":"Texas","id":"1840020959"},
{"city":"San Elizario","lat":"31.5793","lng":"-106.2632","state":"Texas","id":"1840019523"},
{"city":"Port Arthur","lat":"29.8554","lng":"-93.9264","state":"Texas","id":"1840020919"},
{"city":"Marshall","lat":"32.5370","lng":"-94.3515","state":"Texas","id":"1840020739"},
{"city":"Diboll","lat":"31.1881","lng":"-94.7830","state":"Texas","id":"1840019549"},
{"city":"Amarillo","lat":"35.1999","lng":"-101.8297","state":"Texas","id":"1840019156"},
{"city":"Plano","lat":"33.0502","lng":"-96.7487","state":"Texas","id":"1840020662"},
{"city":"Mesquite","lat":"32.7621","lng":"-96.5888","state":"Texas","id":"1840020713"},
{"city":"Prosper","lat":"33.2394","lng":"-96.8088","state":"Texas","id":"1840022019"},
{"city":"Hitchcock","lat":"29.2945","lng":"-95.0250","state":"Texas","id":"1840020971"},
{"city":"Plainview","lat":"34.1908","lng":"-101.7234","state":"Texas","id":"1840020538"},
{"city":"Colorado City","lat":"32.3994","lng":"-100.8582","state":"Texas","id":"1840019472"},
{"city":"Baytown","lat":"29.7607","lng":"-94.9628","state":"Texas","id":"1840019616"},
{"city":"La Grange","lat":"29.9129","lng":"-96.8767","state":"Texas","id":"1840020934"},
{"city":"North Richland Hills","lat":"32.8605","lng":"-97.2180","state":"Texas","id":"1840020703"},
{"city":"Eagle Pass","lat":"28.7118","lng":"-100.4832","state":"Texas","id":"1840019690"},
{"city":"Giddings","lat":"30.1833","lng":"-96.9289","state":"Texas","id":"1840020895"},
{"city":"Seabrook","lat":"29.5751","lng":"-95.0236","state":"Texas","id":"1840022197"},
{"city":"Celina","lat":"33.3201","lng":"-96.7854","state":"Texas","id":"1840019395"},
{"city":"Bridge City","lat":"30.0298","lng":"-93.8406","state":"Texas","id":"1840019609"},
{"city":"Cibolo","lat":"29.5689","lng":"-98.2149","state":"Texas","id":"1840019639"},
{"city":"Gladewater","lat":"32.5435","lng":"-94.9453","state":"Texas","id":"1840020745"},
{"city":"Lindale","lat":"32.4933","lng":"-95.4069","state":"Texas","id":"1840022078"},
{"city":"Balch Springs","lat":"32.7194","lng":"-96.6150","state":"Texas","id":"1840019435"},
{"city":"Lancaster","lat":"32.5922","lng":"-96.7737","state":"Texas","id":"1840020714"},
{"city":"Gatesville","lat":"31.4440","lng":"-97.7333","state":"Texas","id":"1840020825"},
{"city":"Pearsall","lat":"28.8885","lng":"-99.0988","state":"Texas","id":"1840020992"},
{"city":"Garland","lat":"32.9100","lng":"-96.6305","state":"Texas","id":"1840020707"},
{"city":"Gilmer","lat":"32.7317","lng":"-94.9460","state":"Texas","id":"1840020731"},
{"city":"Robstown","lat":"27.7886","lng":"-97.6685","state":"Texas","id":"1840021010"},
{"city":"Stephenville","lat":"32.2148","lng":"-98.2205","state":"Texas","id":"1840022097"},
{"city":"Wake Village","lat":"33.4240","lng":"-94.1188","state":"Texas","id":"1840021988"},
{"city":"La Porte","lat":"29.6690","lng":"-95.0483","state":"Texas","id":"1840020932"},
{"city":"Leander","lat":"30.5707","lng":"-97.8587","state":"Texas","id":"1840020877"},
{"city":"Nederland","lat":"29.9707","lng":"-94.0015","state":"Texas","id":"1840020917"},
{"city":"Rowlett","lat":"32.9165","lng":"-96.5494","state":"Texas","id":"1840020711"},
{"city":"Kennedale","lat":"32.6434","lng":"-97.2173","state":"Texas","id":"1840019429"},
{"city":"Mineral Wells","lat":"32.8169","lng":"-98.0776","state":"Texas","id":"1840020689"},
{"city":"Joshua","lat":"32.4607","lng":"-97.3829","state":"Texas","id":"1840019468"},
{"city":"Beaumont","lat":"30.0849","lng":"-94.1451","state":"Texas","id":"1840019612"},
{"city":"Buda","lat":"30.0854","lng":"-97.8440","state":"Texas","id":"1840019605"},
{"city":"Crockett","lat":"31.3177","lng":"-95.4564","state":"Texas","id":"1840019547"},
{"city":"Mount Pleasant","lat":"33.1613","lng":"-94.9717","state":"Texas","id":"1840020666"},
{"city":"Krum","lat":"33.2651","lng":"-97.2261","state":"Texas","id":"1840020645"},
{"city":"Richmond","lat":"29.5817","lng":"-95.7605","state":"Texas","id":"1840020947"},
{"city":"El Paso","lat":"31.8478","lng":"-106.4310","state":"Texas","id":"1840023252"},
{"city":"Humble","lat":"29.9920","lng":"-95.2656","state":"Texas","id":"1840020926"},
{"city":"Prairie View","lat":"30.0850","lng":"-95.9897","state":"Texas","id":"1840021698"},
{"city":"Denton","lat":"33.2165","lng":"-97.1411","state":"Texas","id":"1840019390"},
{"city":"Harlingen","lat":"26.1914","lng":"-97.6977","state":"Texas","id":"1840021036"},
{"city":"Burkburnett","lat":"34.0748","lng":"-98.5671","state":"Texas","id":"1840019278"},
{"city":"Huntsville","lat":"30.7050","lng":"-95.5545","state":"Texas","id":"1840019565"},
{"city":"Bulverde","lat":"29.7723","lng":"-98.4373","state":"Texas","id":"1840019628"},
{"city":"Silsbee","lat":"30.3456","lng":"-94.1764","state":"Texas","id":"1840022182"},
{"city":"Grapevine","lat":"32.9343","lng":"-97.0744","state":"Texas","id":"1840020697"},
{"city":"Forest Hill","lat":"32.6620","lng":"-97.2664","state":"Texas","id":"1840020695"},
{"city":"Edinburg","lat":"26.3183","lng":"-98.1622","state":"Texas","id":"1840021020"},
{"city":"Carrizo Springs","lat":"28.5266","lng":"-99.8589","state":"Texas","id":"1840019702"},
{"city":"Hutchins","lat":"32.6421","lng":"-96.7093","state":"Texas","id":"1840019437"},
{"city":"Highland Park","lat":"32.8311","lng":"-96.8012","state":"Texas","id":"1840022058"},
{"city":"Littlefield","lat":"33.9191","lng":"-102.3349","state":"Texas","id":"1840020539"},
{"city":"Hidalgo","lat":"26.1080","lng":"-98.2481","state":"Texas","id":"1840021023"},
{"city":"Helotes","lat":"29.5701","lng":"-98.6947","state":"Texas","id":"1840020957"},
{"city":"Cuero","lat":"29.1006","lng":"-97.2865","state":"Texas","id":"1840019676"},
{"city":"Selma","lat":"29.5866","lng":"-98.3134","state":"Texas","id":"1840022221"},
{"city":"Rockwall","lat":"32.9169","lng":"-96.4379","state":"Texas","id":"1840020717"},
{"city":"Midlothian","lat":"32.4716","lng":"-96.9879","state":"Texas","id":"1840020757"},
{"city":"Odessa","lat":"31.8831","lng":"-102.3407","state":"Texas","id":"1840020794"},
{"city":"Heath","lat":"32.8443","lng":"-96.4679","state":"Texas","id":"1840020716"},
{"city":"Sweetwater","lat":"32.4693","lng":"-100.4092","state":"Texas","id":"1840022089"},
{"city":"Robinson","lat":"31.4501","lng":"-97.1202","state":"Texas","id":"1840020813"},
{"city":"Marble Falls","lat":"30.5733","lng":"-98.2717","state":"Texas","id":"1840020870"},
{"city":"Jersey Village","lat":"29.8903","lng":"-95.5721","state":"Texas","id":"1840019620"},
{"city":"Palestine","lat":"31.7544","lng":"-95.6471","state":"Texas","id":"1840020798"},
{"city":"Henderson","lat":"32.1576","lng":"-94.7960","state":"Texas","id":"1840020767"},
{"city":"Glenn Heights","lat":"32.5507","lng":"-96.8548","state":"Texas","id":"1840020708"},
{"city":"Bedford","lat":"32.8464","lng":"-97.1350","state":"Texas","id":"1840019424"},
{"city":"Keene","lat":"32.3955","lng":"-97.3226","state":"Texas","id":"1840019469"},
{"city":"Bridgeport","lat":"33.2094","lng":"-97.7717","state":"Texas","id":"1840019384"},
{"city":"Lacy-Lakeview","lat":"31.6292","lng":"-97.1052","state":"Texas","id":"1840020818"},
{"city":"Round Rock","lat":"30.5253","lng":"-97.6659","state":"Texas","id":"1840020879"},
{"city":"Palmview","lat":"26.2302","lng":"-98.3791","state":"Texas","id":"1840021028"},
{"city":"Graham","lat":"33.1017","lng":"-98.5778","state":"Texas","id":"1840020668"},
{"city":"Willis","lat":"30.4308","lng":"-95.4820","state":"Texas","id":"1840022175"},
{"city":"Bellaire","lat":"29.7039","lng":"-95.4622","state":"Texas","id":"1840019617"},
{"city":"Dallas","lat":"32.7938","lng":"-96.7659","state":"Texas","id":"1840019440"},
{"city":"Lakeway","lat":"30.3557","lng":"-97.9805","state":"Texas","id":"1840020894"},
{"city":"Princeton","lat":"33.1840","lng":"-96.5079","state":"Texas","id":"1840020663"},
{"city":"Corinth","lat":"33.1434","lng":"-97.0681","state":"Texas","id":"1840019389"},
{"city":"Jacinto City","lat":"29.7663","lng":"-95.2411","state":"Texas","id":"1840019619"},
{"city":"Donna","lat":"26.1468","lng":"-98.0559","state":"Texas","id":"1840019734"},
{"city":"Roanoke","lat":"33.0150","lng":"-97.2267","state":"Texas","id":"1840020641"},
{"city":"Tyler","lat":"32.3184","lng":"-95.3065","state":"Texas","id":"1840022076"},
{"city":"Live Oak","lat":"29.5545","lng":"-98.3404","state":"Texas","id":"1840020960"},
{"city":"University Park","lat":"32.8506","lng":"-96.7937","state":"Texas","id":"1840022055"},
{"city":"Corsicana","lat":"32.0823","lng":"-96.4676","state":"Texas","id":"1840019505"},
{"city":"Breckenridge","lat":"32.7566","lng":"-98.9122","state":"Texas","id":"1840019448"},
{"city":"Cleburne","lat":"32.3585","lng":"-97.4172","state":"Texas","id":"1840019464"},
{"city":"Bee Cave","lat":"30.3097","lng":"-97.9625","state":"Texas","id":"1840023142"},
{"city":"Seguin","lat":"29.5892","lng":"-97.9656","state":"Texas","id":"1840022214"},
{"city":"Brady","lat":"31.1324","lng":"-99.3711","state":"Texas","id":"1840019550"},
{"city":"Slaton","lat":"33.4421","lng":"-101.6477","state":"Texas","id":"1840021982"},
{"city":"Alvin","lat":"29.3820","lng":"-95.2924","state":"Texas","id":"1840019671"},
{"city":"Red Oak","lat":"32.5204","lng":"-96.7860","state":"Texas","id":"1840020761"},
{"city":"San Benito","lat":"26.1298","lng":"-97.6440","state":"Texas","id":"1840022260"},
{"city":"Midland","lat":"32.0278","lng":"-102.1107","state":"Texas","id":"1840020792"},
{"city":"Carthage","lat":"32.1526","lng":"-94.3368","state":"Texas","id":"1840019497"},
{"city":"Anthony","lat":"31.9876","lng":"-106.5933","state":"Texas","id":"1840022138"},
{"city":"Bryan","lat":"30.6661","lng":"-96.3670","state":"Texas","id":"1840019569"},
{"city":"Terrell","lat":"32.7309","lng":"-96.2884","state":"Texas","id":"1840022065"},
{"city":"Austin","lat":"30.3038","lng":"-97.7545","state":"Texas","id":"1840019590"},
{"city":"Wylie","lat":"33.0353","lng":"-96.5170","state":"Texas","id":"1840022018"},
{"city":"Texas City","lat":"29.4127","lng":"-94.9658","state":"Texas","id":"1840022234"},
{"city":"Hewitt","lat":"31.4520","lng":"-97.1962","state":"Texas","id":"1840020809"},
{"city":"Manor","lat":"30.3548","lng":"-97.5302","state":"Texas","id":"1840020890"},
{"city":"Universal City","lat":"29.5521","lng":"-98.3074","state":"Texas","id":"1840022225"},
{"city":"Los Fresnos","lat":"26.0741","lng":"-97.4801","state":"Texas","id":"1840021037"},
{"city":"Andrews","lat":"32.3211","lng":"-102.5522","state":"Texas","id":"1840019474"},
{"city":"Mont Belvieu","lat":"29.8522","lng":"-94.8789","state":"Texas","id":"1840020942"},
{"city":"Edna","lat":"28.9757","lng":"-96.6483","state":"Texas","id":"1840020984"},
{"city":"Progreso","lat":"26.0962","lng":"-97.9566","state":"Texas","id":"1840021031"},
{"city":"Beeville","lat":"28.4059","lng":"-97.7494","state":"Texas","id":"1840019698"},
{"city":"Cedar Park","lat":"30.5133","lng":"-97.8180","state":"Texas","id":"1840019572"},
{"city":"Schertz","lat":"29.5652","lng":"-98.2541","state":"Texas","id":"1840022213"},
{"city":"Kerrville","lat":"30.0398","lng":"-99.1317","state":"Texas","id":"1840020908"},
{"city":"Sachse","lat":"32.9727","lng":"-96.5792","state":"Texas","id":"1840020712"},
{"city":"Sealy","lat":"29.7684","lng":"-96.1615","state":"Texas","id":"1840022209"},
{"city":"Kermit","lat":"31.8540","lng":"-103.0924","state":"Texas","id":"1840020796"},
{"city":"Bastrop","lat":"30.1112","lng":"-97.3159","state":"Texas","id":"1840019603"},
{"city":"River Oaks","lat":"32.7767","lng":"-97.3984","state":"Texas","id":"1840020701"},
{"city":"Sullivan City","lat":"26.2752","lng":"-98.5644","state":"Texas","id":"1840022257"},
{"city":"Everman","lat":"32.6296","lng":"-97.2828","state":"Texas","id":"1840020694"},
{"city":"Lago Vista","lat":"30.4521","lng":"-97.9910","state":"Texas","id":"1840020893"},
{"city":"Seagoville","lat":"32.6530","lng":"-96.5455","state":"Texas","id":"1840022054"},
{"city":"Whitehouse","lat":"32.2228","lng":"-95.2222","state":"Texas","id":"1840022077"},
{"city":"Weslaco","lat":"26.1669","lng":"-97.9859","state":"Texas","id":"1840022258"},
{"city":"Monahans","lat":"31.6291","lng":"-103.0414","state":"Texas","id":"1840036514"},
{"city":"White Settlement","lat":"32.7554","lng":"-97.4605","state":"Texas","id":"1840022051"},
{"city":"Missouri City","lat":"29.5634","lng":"-95.5377","state":"Texas","id":"1840020950"},
{"city":"Stafford","lat":"29.6272","lng":"-95.5654","state":"Texas","id":"1840022216"},
{"city":"Gonzales","lat":"29.5126","lng":"-97.4472","state":"Texas","id":"1840020953"},
{"city":"Conroe","lat":"30.3174","lng":"-95.4705","state":"Texas","id":"1840019586"},
{"city":"La Marque","lat":"29.3690","lng":"-94.9957","state":"Texas","id":"1840020972"},
{"city":"Katy","lat":"29.7911","lng":"-95.8268","state":"Texas","id":"1840019648"},
{"city":"Borger","lat":"35.6598","lng":"-101.4012","state":"Texas","id":"1840019083"},
{"city":"Liberty","lat":"30.0490","lng":"-94.7903","state":"Texas","id":"1840020965"},
{"city":"Aransas Pass","lat":"27.8881","lng":"-97.1128","state":"Texas","id":"1840019708"},
{"city":"Alpine","lat":"30.3640","lng":"-103.6651","state":"Texas","id":"1840019580"},
{"city":"Raymondville","lat":"26.4759","lng":"-97.7769","state":"Texas","id":"1840021035"},
{"city":"Brownfield","lat":"33.1757","lng":"-102.2730","state":"Texas","id":"1840019404"},
{"city":"Sulphur Springs","lat":"33.1421","lng":"-95.6124","state":"Texas","id":"1840022031"},
{"city":"Lufkin","lat":"31.3206","lng":"-94.7290","state":"Texas","id":"1840020840"},
{"city":"Dickinson","lat":"29.4540","lng":"-95.0587","state":"Texas","id":"1840019667"},
{"city":"Flower Mound","lat":"33.0344","lng":"-97.1147","state":"Texas","id":"1840022010"},
{"city":"Brownwood","lat":"31.7124","lng":"-98.9765","state":"Texas","id":"1840019519"},
{"city":"Horizon City","lat":"31.6799","lng":"-106.1903","state":"Texas","id":"1840020805"},
{"city":"Abilene","lat":"32.4543","lng":"-99.7384","state":"Texas","id":"1840019476"},
{"city":"Alton","lat":"26.2887","lng":"-98.3105","state":"Texas","id":"1840019733"},
{"city":"Mercedes","lat":"26.1533","lng":"-97.9128","state":"Texas","id":"1840021025"},
{"city":"Paris","lat":"33.6685","lng":"-95.5445","state":"Texas","id":"1840020594"},
{"city":"Denison","lat":"33.7570","lng":"-96.5661","state":"Texas","id":"1840019317"},
{"city":"The Colony","lat":"33.0926","lng":"-96.8977","state":"Texas","id":"1840022005"},
{"city":"Saginaw","lat":"32.8649","lng":"-97.3649","state":"Texas","id":"1840022046"},
{"city":"Lockhart","lat":"29.8785","lng":"-97.6831","state":"Texas","id":"1840020936"},
{"city":"Fredericksburg","lat":"30.2669","lng":"-98.8759","state":"Texas","id":"1840020898"},
{"city":"Benbrook","lat":"32.6767","lng":"-97.4629","state":"Texas","id":"1840019425"},
{"city":"Santa Fe","lat":"29.3891","lng":"-95.1005","state":"Texas","id":"1840022233"},
{"city":"Rockdale","lat":"30.6544","lng":"-97.0090","state":"Texas","id":"1840020859"},
{"city":"Port Neches","lat":"29.9765","lng":"-93.9459","state":"Texas","id":"1840020920"},
{"city":"Temple","lat":"31.1077","lng":"-97.3899","state":"Texas","id":"1840022154"},
{"city":"Mansfield","lat":"32.5692","lng":"-97.1208","state":"Texas","id":"1840020702"},
{"city":"League City","lat":"29.4873","lng":"-95.1090","state":"Texas","id":"1840020973"},
{"city":"West Columbia","lat":"29.1418","lng":"-95.6488","state":"Texas","id":"1840022237"},
{"city":"Center","lat":"31.7950","lng":"-94.1790","state":"Texas","id":"1840019528"},
{"city":"South Houston","lat":"29.6611","lng":"-95.2285","state":"Texas","id":"1840022199"},
{"city":"Richardson","lat":"32.9717","lng":"-96.7092","state":"Texas","id":"1840020710"},
{"city":"Ennis","lat":"32.3255","lng":"-96.6369","state":"Texas","id":"1840020754"},
{"city":"Granite Shoals","lat":"30.5895","lng":"-98.3778","state":"Texas","id":"1840020867"},
{"city":"Luling","lat":"29.6817","lng":"-97.6466","state":"Texas","id":"1840020937"},
{"city":"Clute","lat":"29.0273","lng":"-95.3972","state":"Texas","id":"1840019669"},
{"city":"Navasota","lat":"30.3869","lng":"-96.0895","state":"Texas","id":"1840023174"},
{"city":"Groves","lat":"29.9457","lng":"-93.9164","state":"Texas","id":"1840020916"},
{"city":"Houston","lat":"29.7871","lng":"-95.3936","state":"Texas","id":"1840020925"},
{"city":"Windcrest","lat":"29.5148","lng":"-98.3819","state":"Texas","id":"1840022226"},
{"city":"Elsa","lat":"26.2979","lng":"-97.9937","state":"Texas","id":"1840021021"},
{"city":"Dalhart","lat":"36.0579","lng":"-102.5123","state":"Texas","id":"1840019052"},
{"city":"College Station","lat":"30.5857","lng":"-96.2960","state":"Texas","id":"1840019570"},
{"city":"Grand Prairie","lat":"32.6869","lng":"-97.0209","state":"Texas","id":"1840020709"},
{"city":"Victoria","lat":"28.8284","lng":"-96.9848","state":"Texas","id":"1840023044"},
{"city":"Socorro","lat":"31.6385","lng":"-106.2600","state":"Texas","id":"1840022136"},
{"city":"Burleson","lat":"32.5200","lng":"-97.3341","state":"Texas","id":"1840019467"},
{"city":"Big Spring","lat":"32.2387","lng":"-101.4802","state":"Texas","id":"1840019471"},
{"city":"Colleyville","lat":"32.8913","lng":"-97.1486","state":"Texas","id":"1840019430"},
{"city":"Jasper","lat":"30.9221","lng":"-93.9947","state":"Texas","id":"1840019560"},
{"city":"Gainesville","lat":"33.6391","lng":"-97.1488","state":"Texas","id":"1840020573"},
{"city":"Killeen","lat":"31.0758","lng":"-97.7286","state":"Texas","id":"1840020854"},
{"city":"Lake Dallas","lat":"33.1277","lng":"-97.0234","state":"Texas","id":"1840020646"},
{"city":"Kilgore","lat":"32.3979","lng":"-94.8603","state":"Texas","id":"1840020747"},
{"city":"Brownsville","lat":"25.9981","lng":"-97.4566","state":"Texas","id":"1840019743"},
{"city":"Aledo","lat":"32.6973","lng":"-97.6070","state":"Texas","id":"1840019418"},
{"city":"Greenville","lat":"33.1115","lng":"-96.1094","state":"Texas","id":"1840020649"},
{"city":"Dayton","lat":"30.0358","lng":"-94.9024","state":"Texas","id":"1840019599"},
{"city":"Pearland","lat":"29.5585","lng":"-95.3201","state":"Texas","id":"1840020979"},
{"city":"Fair Oaks Ranch","lat":"29.7454","lng":"-98.6396","state":"Texas","id":"1840020939"},
{"city":"San Antonio","lat":"29.4722","lng":"-98.5247","state":"Texas","id":"1840022220"},
{"city":"Fort Stockton","lat":"30.8926","lng":"-102.8847","state":"Texas","id":"1840020848"},
{"city":"Iowa Park","lat":"33.9623","lng":"-98.6819","state":"Texas","id":"1840019279"},
{"city":"Copperas Cove","lat":"31.1180","lng":"-97.9135","state":"Texas","id":"1840019538"},
{"city":"Fate","lat":"32.9401","lng":"-96.3864","state":"Texas","id":"1840020715"},
{"city":"Converse","lat":"29.5130","lng":"-98.3079","state":"Texas","id":"1840019655"},
{"city":"Hutto","lat":"30.5375","lng":"-97.5515","state":"Texas","id":"1840019573"},
{"city":"Richland Hills","lat":"32.8095","lng":"-97.2273","state":"Texas","id":"1840020700"},
{"city":"Jacksonville","lat":"31.9642","lng":"-95.2617","state":"Texas","id":"1840019515"}
]
