[
{"city":"Manassas Park","lat":"38.7717","lng":"-77.4448","state":"Virginia","id":"1840003838"},
{"city":"Fairfax","lat":"38.8531","lng":"-77.2998","state":"Virginia","id":"1840001650"},
{"city":"Big Stone Gap","lat":"36.8615","lng":"-82.7774","state":"Virginia","id":"1840006481"},
{"city":"Waynesboro","lat":"38.0673","lng":"-78.9012","state":"Virginia","id":"1840003848"},
{"city":"Lexington","lat":"37.7825","lng":"-79.4440","state":"Virginia","id":"1840001689"},
{"city":"Winchester","lat":"39.1734","lng":"-78.1745","state":"Virginia","id":"1840001623"},
{"city":"Orange","lat":"38.2484","lng":"-78.1125","state":"Virginia","id":"1840006268"},
{"city":"Strasburg","lat":"38.9944","lng":"-78.3541","state":"Virginia","id":"1840006004"},
{"city":"Radford","lat":"37.1229","lng":"-80.5583","state":"Virginia","id":"1840003864"},
{"city":"Richmond","lat":"37.5294","lng":"-77.4755","state":"Virginia","id":"1840001698"},
{"city":"Virginia Beach","lat":"36.7335","lng":"-76.0435","state":"Virginia","id":"1840003871"},
{"city":"Herndon","lat":"38.9699","lng":"-77.3867","state":"Virginia","id":"1840006037"},
{"city":"Chesapeake","lat":"36.6778","lng":"-76.3024","state":"Virginia","id":"1840003874"},
{"city":"Purcellville","lat":"39.1378","lng":"-77.7109","state":"Virginia","id":"1840005875"},
{"city":"Covington","lat":"37.7786","lng":"-79.9868","state":"Virginia","id":"1840001688"},
{"city":"Charlottesville","lat":"38.0374","lng":"-78.4856","state":"Virginia","id":"1840001678"},
{"city":"Smithfield","lat":"36.9753","lng":"-76.6162","state":"Virginia","id":"1840006487"},
{"city":"Norfolk","lat":"36.8945","lng":"-76.2590","state":"Virginia","id":"1840003869"},
{"city":"Dumfries","lat":"38.5670","lng":"-77.3234","state":"Virginia","id":"1840006102"},
{"city":"Petersburg","lat":"37.2042","lng":"-77.3914","state":"Virginia","id":"1840003861"},
{"city":"Clifton Forge","lat":"37.8232","lng":"-79.8250","state":"Virginia","id":"1840006365"},
{"city":"Falls Church","lat":"38.8846","lng":"-77.1751","state":"Virginia","id":"1840003835"},
{"city":"Rocky Mount","lat":"37.0045","lng":"-79.8855","state":"Virginia","id":"1840006479"},
{"city":"Galax","lat":"36.6660","lng":"-80.9176","state":"Virginia","id":"1840003877"},
{"city":"Farmville","lat":"37.2968","lng":"-78.3993","state":"Virginia","id":"1840006443"},
{"city":"Martinsville","lat":"36.6827","lng":"-79.8636","state":"Virginia","id":"1840001727"},
{"city":"Danville","lat":"36.5831","lng":"-79.4088","state":"Virginia","id":"1840003878"},
{"city":"Manassas","lat":"38.7480","lng":"-77.4840","state":"Virginia","id":"1840003839"},
{"city":"Suffolk","lat":"36.6953","lng":"-76.6398","state":"Virginia","id":"1840003873"},
{"city":"Harrisonburg","lat":"38.4362","lng":"-78.8735","state":"Virginia","id":"1840003844"},
{"city":"Fredericksburg","lat":"38.2992","lng":"-77.4871","state":"Virginia","id":"1840003845"},
{"city":"Warrenton","lat":"38.7177","lng":"-77.7973","state":"Virginia","id":"1840006058"},
{"city":"Marion","lat":"36.8389","lng":"-81.5135","state":"Virginia","id":"1840006515"},
{"city":"Broadway","lat":"38.6083","lng":"-78.8016","state":"Virginia","id":"1840006136"},
{"city":"Bridgewater","lat":"38.3863","lng":"-78.9674","state":"Virginia","id":"1840006135"},
{"city":"Culpeper","lat":"38.4705","lng":"-78.0002","state":"Virginia","id":"1840006169"},
{"city":"Vinton","lat":"37.2747","lng":"-79.8886","state":"Virginia","id":"1840003856"},
{"city":"Blacksburg","lat":"37.2300","lng":"-80.4277","state":"Virginia","id":"1840006446"},
{"city":"Portsmouth","lat":"36.8468","lng":"-76.3540","state":"Virginia","id":"1840003872"},
{"city":"Newport News","lat":"37.1052","lng":"-76.5185","state":"Virginia","id":"1840003862"},
{"city":"Salem","lat":"37.2864","lng":"-80.0554","state":"Virginia","id":"1840001719"},
{"city":"Leesburg","lat":"39.1057","lng":"-77.5543","state":"Virginia","id":"1840005872"},
{"city":"Pulaski","lat":"37.0531","lng":"-80.7624","state":"Virginia","id":"1840006469"},
{"city":"Staunton","lat":"38.1593","lng":"-79.0608","state":"Virginia","id":"1840001670"},
{"city":"Wytheville","lat":"36.9530","lng":"-81.0881","state":"Virginia","id":"1840006504"},
{"city":"Bristol","lat":"36.6180","lng":"-82.1607","state":"Virginia","id":"1840003879"},
{"city":"Ashland","lat":"37.7597","lng":"-77.4715","state":"Virginia","id":"1840006341"},
{"city":"Hampton","lat":"37.0551","lng":"-76.3629","state":"Virginia","id":"1840003866"},
{"city":"Roanoke","lat":"37.2784","lng":"-79.9581","state":"Virginia","id":"1840003858"},
{"city":"Williamsburg","lat":"37.2691","lng":"-76.7075","state":"Virginia","id":"1840001720"},
{"city":"Front Royal","lat":"38.9260","lng":"-78.1837","state":"Virginia","id":"1840006045"},
{"city":"Alexandria","lat":"38.8184","lng":"-77.0861","state":"Virginia","id":"1840003837"},
{"city":"Norton","lat":"36.9317","lng":"-82.6260","state":"Virginia","id":"1840003870"},
{"city":"Vienna","lat":"38.8996","lng":"-77.2597","state":"Virginia","id":"1840003829"},
{"city":"Lynchburg","lat":"37.4004","lng":"-79.1911","state":"Virginia","id":"1840003855"},
{"city":"Emporia","lat":"36.6953","lng":"-77.5356","state":"Virginia","id":"1840003875"},
{"city":"Woodstock","lat":"38.8753","lng":"-78.5158","state":"Virginia","id":"1840006006"},
{"city":"Richlands","lat":"37.0877","lng":"-81.8082","state":"Virginia","id":"1840006454"},
{"city":"Poquoson","lat":"37.1318","lng":"-76.3569","state":"Virginia","id":"1840003863"},
{"city":"Bedford","lat":"37.3359","lng":"-79.5181","state":"Virginia","id":"1840001713"},
{"city":"Abingdon","lat":"36.7089","lng":"-81.9711","state":"Virginia","id":"1840006529"},
{"city":"Franklin","lat":"36.6831","lng":"-76.9386","state":"Virginia","id":"1840003876"},
{"city":"Hopewell","lat":"37.2914","lng":"-77.2985","state":"Virginia","id":"1840003859"},
{"city":"Buena Vista","lat":"37.7316","lng":"-79.3565","state":"Virginia","id":"1840003851"},
{"city":"South Boston","lat":"36.7131","lng":"-78.9135","state":"Virginia","id":"1840037461"},
{"city":"Christiansburg","lat":"37.1411","lng":"-80.4028","state":"Virginia","id":"1840006447"},
{"city":"Colonial Heights","lat":"37.2650","lng":"-77.3969","state":"Virginia","id":"1840003860"}
]
